{
   "type": "FeatureCollection",
   "features": [
  {
    "type": "Feature",
    "geometry": {
       "type": "Point",
       "coordinates":  [ 8.005382,46.577555 ]
    },
    "properties": {
    "id":"eig",
    "name":"Eiger",
    "el":3967,
    "url":"/e4/pages/eiger.php",
    "mountainrailway":"no"
    }
  },
  {
    "type": "Feature",
    "geometry": {
       "type": "Point",
       "coordinates":  [ 9.020156,45.931455 ]
    },
    "properties": {
    "id":"mge",
    "name":"Monte Generoso",
    "el":1701,
    "url":"/e4/pages/generoso.php",
    "mountainrailway":"yes"
    }
  },
  {
    "type": "Feature",
    "geometry": {
       "type": "Point",
       "coordinates":  [ 7.658434,45.976653 ]
    },
    "properties": {
    "id":"mat",
    "name":"Matterhorn",
    "el":4477,
    "url":"/e4/pages/matterhorn.php",
    "mountainrailway":"no"
    }
  },
  {
    "type": "Feature",
    "geometry": {
       "type": "Point",
       "coordinates":  [ 8.681283,46.73697 ]
    },
    "properties": {
    "id":"bri",
    "name":"Bristen",
    "el":3073,
    "url":"/e4/pages/bristen.php",
    "mountainrailway":"no"
    }
  },
  {
    "type": "Feature",
    "geometry": {
       "type": "Point",
       "coordinates":  [ 7.775339,46.711302 ]
    },
    "properties": {
    "id":"nie",
    "name":"Niederhorn",
    "el":1963,
    "url":"/e4/pages/niederhorn.php",
    "mountainrailway":"yes"
    }
  },
  {
    "type": "Feature",
    "geometry": {
       "type": "Point",
       "coordinates":  [ 9.908117,46.382328 ]
    },
    "properties": {
    "id":"pbe",
    "name":"Piz Bernina",
    "el":4049,
    "url":"/e4/pages/pizbernina.php",
    "mountainrailway":"no"
    }
  },
  {
    "type": "Feature",
    "geometry": {
       "type": "Point",
       "coordinates":  [ 8.485215,47.056731 ]
    },
    "properties": {
    "id":"rig",
    "name":"Rigi",
    "el":1798,
    "url":"/e4/pages/rigi.php",
    "mountainrailway":"yes"
    }
  },
  {
    "type": "Feature",
    "geometry": {
       "type": "Point",
       "coordinates":  [ 9.343259,47.249403 ]
    },
    "properties": {
    "id":"san",
    "name":"Säntis",
    "el":2502,
    "url":"/e4/pages/santis.php",
    "mountainrailway":"yes"
    }
  },
  {
    "type": "Feature",
    "geometry": {
       "type": "Point",
       "coordinates":  [ 8.437769,46.772067 ]
    },
    "properties": {
    "id":"tit",
    "name":"Titlis",
    "el":3238,
    "url":"/e4/pages/titlis.php",
    "mountainrailway":"yes"
    }
  },
  {
    "type": "Feature",
    "geometry": {
       "type": "Point",
       "coordinates":  [ 8.914868,46.811151 ]
    },
    "properties": {
    "id":"tod",
    "name":"Tödi",
    "el":3614,
    "url":"/e4/pages/todi.php",
    "mountainrailway":"no"
    }
  },
  {
    "type": "Feature",
    "geometry": {
       "type": "Point",
       "coordinates":  [ 9.221249,46.898255 ]
    },
    "properties": {
    "id":"tsh",
    "name":"Tschingelhörner",
    "el":2849,
    "url":"/e4/pages/tschingelhorner.php",
    "mountainrailway":"no"
    }
  },
  {
    "type": "Feature",
    "geometry": {
       "type": "Point",
       "coordinates":  [ 8.49205,47.349499 ]
    },
    "properties": {
    "id":"uet",
    "name":"Uetliberg",
    "el":870,
    "url":"/e4/pages/uetliberg.php",
    "mountainrailway":"yes"
    }
  }
]
}